[
    {
        "user_id": 1,
        "slug": "appartamento-1",
        "title": "Appartamento numero 1 in una citt\u00e0 italiana",
        "property": "Appartamento",
        "city": "Palermo",
        "address": "Via Roma, 77",
        "description": "Descrizione generica dell'appartamento",
        "n_rooms": 1,
        "n_beds": 4,
        "n_bathrooms": 1,
        "square_meters": 100,
        "latitude": 45.7042,
        "longitude": 13.471,
        "status": "occupato"
    },
    {
        "user_id": 1,
        "slug": "appartamento-2",
        "title": "Appartamento numero 2 in una citt\u00e0 italiana",
        "property": "Monolocale",
        "city": "Roma",
        "address": "Via Bologna, 64",
        "description": "Descrizione generica dell'appartamento",
        "n_rooms": 2,
        "n_beds": 5,
        "n_bathrooms": 2,
        "square_meters": 58,
        "latitude": 39.8121,
        "longitude": 10.1071,
        "status": "occupato"
    },
    {
        "user_id": 4,
        "slug": "appartamento-3",
        "title": "Appartamento numero 3 in una citt\u00e0 italiana",
        "property": "Appartamento",
        "city": "Palermo",
        "address": "Via Napoli, 26",
        "description": "Descrizione generica dell'appartamento",
        "n_rooms": 1,
        "n_beds": 1,
        "n_bathrooms": 2,
        "square_meters": 100,
        "latitude": 44.0213,
        "longitude": 15.6113,
        "status": "disponibile"
    },
    {
        "user_id": 1,
        "slug": "appartamento-4",
        "title": "Appartamento numero 4 in una citt\u00e0 italiana",
        "property": "Villa",
        "city": "Napoli",
        "address": "Via Roma, 23",
        "description": "Descrizione generica dell'appartamento",
        "n_rooms": 5,
        "n_beds": 1,
        "n_bathrooms": 2,
        "square_meters": 33,
        "latitude": 45.5356,
        "longitude": 15.6783,
        "status": "occupato"
    },
    {
        "user_id": 4,
        "slug": "appartamento-5",
        "title": "Appartamento numero 5 in una citt\u00e0 italiana",
        "property": "Appartamento",
        "city": "Palermo",
        "address": "Via Roma, 85",
        "description": "Descrizione generica dell'appartamento",
        "n_rooms": 5,
        "n_beds": 1,
        "n_bathrooms": 1,
        "square_meters": 106,
        "latitude": 41.159,
        "longitude": 8.4183,
        "status": "disponibile"
    },
    {
        "user_id": 3,
        "slug": "appartamento-6",
        "title": "Appartamento numero 6 in una citt\u00e0 italiana",
        "property": "Monolocale",
        "city": "Palermo",
        "address": "Via Milano, 27",
        "description": "Descrizione generica dell'appartamento",
        "n_rooms": 4,
        "n_beds": 3,
        "n_bathrooms": 1,
        "square_meters": 51,
        "latitude": 42.9773,
        "longitude": 15.1904,
        "status": "occupato"
    },
    {
        "user_id": 5,
        "slug": "appartamento-7",
        "title": "Appartamento numero 7 in una citt\u00e0 italiana",
        "property": "Monolocale",
        "city": "Palermo",
        "address": "Via Bologna, 7",
        "description": "Descrizione generica dell'appartamento",
        "n_rooms": 4,
        "n_beds": 4,
        "n_bathrooms": 3,
        "square_meters": 128,
        "latitude": 41.9909,
        "longitude": 16.2289,
        "status": "disponibile"
    },
    {
        "user_id": 2,
        "slug": "appartamento-8",
        "title": "Appartamento numero 8 in una citt\u00e0 italiana",
        "property": "Villa",
        "city": "Palermo",
        "address": "Via Bologna, 78",
        "description": "Descrizione generica dell'appartamento",
        "n_rooms": 4,
        "n_beds": 3,
        "n_bathrooms": 2,
        "square_meters": 62,
        "latitude": 41.1764,
        "longitude": 12.5631,
        "status": "occupato"
    },
    {
        "user_id": 2,
        "slug": "appartamento-9",
        "title": "Appartamento numero 9 in una citt\u00e0 italiana",
        "property": "Attico",
        "city": "Milano",
        "address": "Via Bologna, 54",
        "description": "Descrizione generica dell'appartamento",
        "n_rooms": 1,
        "n_beds": 2,
        "n_bathrooms": 1,
        "square_meters": 32,
        "latitude": 39.998,
        "longitude": 15.7853,
        "status": "disponibile"
    },
    {
        "user_id": 3,
        "slug": "appartamento-10",
        "title": "Appartamento numero 10 in una citt\u00e0 italiana",
        "property": "Villa",
        "city": "Firenze",
        "address": "Via Napoli, 29",
        "description": "Descrizione generica dell'appartamento",
        "n_rooms": 3,
        "n_beds": 2,
        "n_bathrooms": 2,
        "square_meters": 44,
        "latitude": 41.0882,
        "longitude": 15.1351,
        "status": "disponibile"
    },
    {
        "user_id": 2,
        "slug": "appartamento-11",
        "title": "Appartamento numero 11 in una citt\u00e0 italiana",
        "property": "Attico",
        "city": "Napoli",
        "address": "Via Bologna, 90",
        "description": "Descrizione generica dell'appartamento",
        "n_rooms": 2,
        "n_beds": 4,
        "n_bathrooms": 1,
        "square_meters": 71,
        "latitude": 41.5005,
        "longitude": 8.3218,
        "status": "occupato"
    },
    {
        "user_id": 4,
        "slug": "appartamento-12",
        "title": "Appartamento numero 12 in una citt\u00e0 italiana",
        "property": "Appartamento",
        "city": "Venezia",
        "address": "Via Milano, 16",
        "description": "Descrizione generica dell'appartamento",
        "n_rooms": 1,
        "n_beds": 3,
        "n_bathrooms": 2,
        "square_meters": 118,
        "latitude": 42.8948,
        "longitude": 13.7842,
        "status": "occupato"
    },
    {
        "user_id": 1,
        "slug": "appartamento-13",
        "title": "Appartamento numero 13 in una citt\u00e0 italiana",
        "property": "Loft",
        "city": "Milano",
        "address": "Via Milano, 63",
        "description": "Descrizione generica dell'appartamento",
        "n_rooms": 1,
        "n_beds": 4,
        "n_bathrooms": 3,
        "square_meters": 83,
        "latitude": 41.4722,
        "longitude": 9.6732,
        "status": "occupato"
    },
    {
        "user_id": 2,
        "slug": "appartamento-14",
        "title": "Appartamento numero 14 in una citt\u00e0 italiana",
        "property": "Appartamento",
        "city": "Milano",
        "address": "Via Milano, 84",
        "description": "Descrizione generica dell'appartamento",
        "n_rooms": 2,
        "n_beds": 1,
        "n_bathrooms": 2,
        "square_meters": 141,
        "latitude": 45.5845,
        "longitude": 14.047,
        "status": "disponibile"
    },
    {
        "user_id": 1,
        "slug": "appartamento-15",
        "title": "Appartamento numero 15 in una citt\u00e0 italiana",
        "property": "Attico",
        "city": "Milano",
        "address": "Via Palermo, 34",
        "description": "Descrizione generica dell'appartamento",
        "n_rooms": 2,
        "n_beds": 3,
        "n_bathrooms": 1,
        "square_meters": 114,
        "latitude": 37.0782,
        "longitude": 12.3704,
        "status": "occupato"
    },
    {
        "user_id": 5,
        "slug": "appartamento-16",
        "title": "Appartamento numero 16 in una citt\u00e0 italiana",
        "property": "Attico",
        "city": "Bologna",
        "address": "Via Palermo, 16",
        "description": "Descrizione generica dell'appartamento",
        "n_rooms": 4,
        "n_beds": 4,
        "n_bathrooms": 1,
        "square_meters": 32,
        "latitude": 38.492,
        "longitude": 14.15,
        "status": "occupato"
    },
    {
        "user_id": 1,
        "slug": "appartamento-17",
        "title": "Appartamento numero 17 in una citt\u00e0 italiana",
        "property": "Loft",
        "city": "Firenze",
        "address": "Via Roma, 18",
        "description": "Descrizione generica dell'appartamento",
        "n_rooms": 1,
        "n_beds": 2,
        "n_bathrooms": 2,
        "square_meters": 121,
        "latitude": 45.5278,
        "longitude": 14.555,
        "status": "disponibile"
    },
    {
        "user_id": 2,
        "slug": "appartamento-18",
        "title": "Appartamento numero 18 in una citt\u00e0 italiana",
        "property": "Monolocale",
        "city": "Venezia",
        "address": "Via Palermo, 58",
        "description": "Descrizione generica dell'appartamento",
        "n_rooms": 3,
        "n_beds": 3,
        "n_bathrooms": 1,
        "square_meters": 135,
        "latitude": 43.8057,
        "longitude": 17.5073,
        "status": "occupato"
    },
    {
        "user_id": 5,
        "slug": "appartamento-19",
        "title": "Appartamento numero 19 in una citt\u00e0 italiana",
        "property": "Attico",
        "city": "Palermo",
        "address": "Via Palermo, 100",
        "description": "Descrizione generica dell'appartamento",
        "n_rooms": 1,
        "n_beds": 3,
        "n_bathrooms": 1,
        "square_meters": 100,
        "latitude": 43.7055,
        "longitude": 14.2713,
        "status": "occupato"
    },
    {
        "user_id": 2,
        "slug": "appartamento-20",
        "title": "Appartamento numero 20 in una citt\u00e0 italiana",
        "property": "Attico",
        "city": "Firenze",
        "address": "Via Napoli, 88",
        "description": "Descrizione generica dell'appartamento",
        "n_rooms": 4,
        "n_beds": 3,
        "n_bathrooms": 1,
        "square_meters": 36,
        "latitude": 40.2511,
        "longitude": 16.6097,
        "status": "disponibile"
    },
    {
        "user_id": 5,
        "slug": "appartamento-21",
        "title": "Appartamento numero 21 in una citt\u00e0 italiana",
        "property": "Appartamento",
        "city": "Milano",
        "address": "Via Bologna, 33",
        "description": "Descrizione generica dell'appartamento",
        "n_rooms": 3,
        "n_beds": 3,
        "n_bathrooms": 3,
        "square_meters": 99,
        "latitude": 43.6226,
        "longitude": 15.0206,
        "status": "disponibile"
    },
    {
        "user_id": 5,
        "slug": "appartamento-22",
        "title": "Appartamento numero 22 in una citt\u00e0 italiana",
        "property": "Appartamento",
        "city": "Venezia",
        "address": "Via Palermo, 54",
        "description": "Descrizione generica dell'appartamento",
        "n_rooms": 5,
        "n_beds": 4,
        "n_bathrooms": 2,
        "square_meters": 58,
        "latitude": 38.5405,
        "longitude": 12.5382,
        "status": "occupato"
    },
    {
        "user_id": 3,
        "slug": "appartamento-23",
        "title": "Appartamento numero 23 in una citt\u00e0 italiana",
        "property": "Appartamento",
        "city": "Milano",
        "address": "Via Palermo, 74",
        "description": "Descrizione generica dell'appartamento",
        "n_rooms": 5,
        "n_beds": 1,
        "n_bathrooms": 2,
        "square_meters": 53,
        "latitude": 44.9594,
        "longitude": 15.1136,
        "status": "disponibile"
    },
    {
        "user_id": 3,
        "slug": "appartamento-24",
        "title": "Appartamento numero 24 in una citt\u00e0 italiana",
        "property": "Appartamento",
        "city": "Venezia",
        "address": "Via Roma, 63",
        "description": "Descrizione generica dell'appartamento",
        "n_rooms": 4,
        "n_beds": 4,
        "n_bathrooms": 1,
        "square_meters": 109,
        "latitude": 37.9271,
        "longitude": 11.2837,
        "status": "occupato"
    },
    {
        "user_id": 3,
        "slug": "appartamento-25",
        "title": "Appartamento numero 25 in una citt\u00e0 italiana",
        "property": "Villa",
        "city": "Venezia",
        "address": "Via Palermo, 3",
        "description": "Descrizione generica dell'appartamento",
        "n_rooms": 2,
        "n_beds": 5,
        "n_bathrooms": 2,
        "square_meters": 130,
        "latitude": 39.2194,
        "longitude": 14.9236,
        "status": "occupato"
    },
    {
        "user_id": 4,
        "slug": "appartamento-26",
        "title": "Appartamento numero 26 in una citt\u00e0 italiana",
        "property": "Loft",
        "city": "Bologna",
        "address": "Via Roma, 14",
        "description": "Descrizione generica dell'appartamento",
        "n_rooms": 3,
        "n_beds": 5,
        "n_bathrooms": 2,
        "square_meters": 102,
        "latitude": 39.8832,
        "longitude": 15.8875,
        "status": "occupato"
    },
    {
        "user_id": 5,
        "slug": "appartamento-27",
        "title": "Appartamento numero 27 in una citt\u00e0 italiana",
        "property": "Villa",
        "city": "Firenze",
        "address": "Via Palermo, 34",
        "description": "Descrizione generica dell'appartamento",
        "n_rooms": 2,
        "n_beds": 4,
        "n_bathrooms": 2,
        "square_meters": 120,
        "latitude": 38.2093,
        "longitude": 9.1794,
        "status": "disponibile"
    },
    {
        "user_id": 3,
        "slug": "appartamento-28",
        "title": "Appartamento numero 28 in una citt\u00e0 italiana",
        "property": "Villa",
        "city": "Torino",
        "address": "Via Palermo, 86",
        "description": "Descrizione generica dell'appartamento",
        "n_rooms": 3,
        "n_beds": 4,
        "n_bathrooms": 2,
        "square_meters": 37,
        "latitude": 39.2807,
        "longitude": 7.9548,
        "status": "disponibile"
    },
    {
        "user_id": 5,
        "slug": "appartamento-29",
        "title": "Appartamento numero 29 in una citt\u00e0 italiana",
        "property": "Attico",
        "city": "Palermo",
        "address": "Via Milano, 66",
        "description": "Descrizione generica dell'appartamento",
        "n_rooms": 1,
        "n_beds": 4,
        "n_bathrooms": 3,
        "square_meters": 48,
        "latitude": 37.9789,
        "longitude": 9.5464,
        "status": "disponibile"
    },
    {
        "user_id": 3,
        "slug": "appartamento-30",
        "title": "Appartamento numero 30 in una citt\u00e0 italiana",
        "property": "Villa",
        "city": "Roma",
        "address": "Via Napoli, 79",
        "description": "Descrizione generica dell'appartamento",
        "n_rooms": 2,
        "n_beds": 3,
        "n_bathrooms": 1,
        "square_meters": 73,
        "latitude": 44.9895,
        "longitude": 11.0299,
        "status": "disponibile"
    },
    {
        "user_id": 5,
        "slug": "appartamento-31",
        "title": "Appartamento numero 31 in una citt\u00e0 italiana",
        "property": "Monolocale",
        "city": "Roma",
        "address": "Via Roma, 83",
        "description": "Descrizione generica dell'appartamento",
        "n_rooms": 3,
        "n_beds": 3,
        "n_bathrooms": 2,
        "square_meters": 141,
        "latitude": 41.8544,
        "longitude": 13.4939,
        "status": "disponibile"
    },
    {
        "user_id": 3,
        "slug": "appartamento-32",
        "title": "Appartamento numero 32 in una citt\u00e0 italiana",
        "property": "Villa",
        "city": "Firenze",
        "address": "Via Milano, 1",
        "description": "Descrizione generica dell'appartamento",
        "n_rooms": 2,
        "n_beds": 4,
        "n_bathrooms": 1,
        "square_meters": 121,
        "latitude": 37.6229,
        "longitude": 9.434,
        "status": "disponibile"
    },
    {
        "user_id": 5,
        "slug": "appartamento-33",
        "title": "Appartamento numero 33 in una citt\u00e0 italiana",
        "property": "Monolocale",
        "city": "Firenze",
        "address": "Via Napoli, 67",
        "description": "Descrizione generica dell'appartamento",
        "n_rooms": 4,
        "n_beds": 2,
        "n_bathrooms": 3,
        "square_meters": 39,
        "latitude": 43.5267,
        "longitude": 15.9373,
        "status": "disponibile"
    },
    {
        "user_id": 4,
        "slug": "appartamento-34",
        "title": "Appartamento numero 34 in una citt\u00e0 italiana",
        "property": "Monolocale",
        "city": "Venezia",
        "address": "Via Napoli, 77",
        "description": "Descrizione generica dell'appartamento",
        "n_rooms": 5,
        "n_beds": 4,
        "n_bathrooms": 2,
        "square_meters": 135,
        "latitude": 45.0653,
        "longitude": 9.2762,
        "status": "occupato"
    },
    {
        "user_id": 3,
        "slug": "appartamento-35",
        "title": "Appartamento numero 35 in una citt\u00e0 italiana",
        "property": "Monolocale",
        "city": "Firenze",
        "address": "Via Bologna, 97",
        "description": "Descrizione generica dell'appartamento",
        "n_rooms": 4,
        "n_beds": 4,
        "n_bathrooms": 3,
        "square_meters": 71,
        "latitude": 38.0683,
        "longitude": 17.8472,
        "status": "occupato"
    },
    {
        "user_id": 4,
        "slug": "appartamento-36",
        "title": "Appartamento numero 36 in una citt\u00e0 italiana",
        "property": "Monolocale",
        "city": "Venezia",
        "address": "Via Palermo, 40",
        "description": "Descrizione generica dell'appartamento",
        "n_rooms": 3,
        "n_beds": 1,
        "n_bathrooms": 1,
        "square_meters": 45,
        "latitude": 44.7343,
        "longitude": 14.5768,
        "status": "disponibile"
    },
    {
        "user_id": 5,
        "slug": "appartamento-37",
        "title": "Appartamento numero 37 in una citt\u00e0 italiana",
        "property": "Appartamento",
        "city": "Venezia",
        "address": "Via Bologna, 85",
        "description": "Descrizione generica dell'appartamento",
        "n_rooms": 1,
        "n_beds": 1,
        "n_bathrooms": 2,
        "square_meters": 37,
        "latitude": 38.3659,
        "longitude": 12.4791,
        "status": "disponibile"
    },
    {
        "user_id": 2,
        "slug": "appartamento-38",
        "title": "Appartamento numero 38 in una citt\u00e0 italiana",
        "property": "Villa",
        "city": "Venezia",
        "address": "Via Bologna, 54",
        "description": "Descrizione generica dell'appartamento",
        "n_rooms": 2,
        "n_beds": 4,
        "n_bathrooms": 2,
        "square_meters": 52,
        "latitude": 45.9639,
        "longitude": 12.33,
        "status": "occupato"
    },
    {
        "user_id": 3,
        "slug": "appartamento-39",
        "title": "Appartamento numero 39 in una citt\u00e0 italiana",
        "property": "Loft",
        "city": "Roma",
        "address": "Via Napoli, 77",
        "description": "Descrizione generica dell'appartamento",
        "n_rooms": 1,
        "n_beds": 5,
        "n_bathrooms": 1,
        "square_meters": 80,
        "latitude": 45.4775,
        "longitude": 17.4294,
        "status": "disponibile"
    },
    {
        "user_id": 2,
        "slug": "appartamento-40",
        "title": "Appartamento numero 40 in una citt\u00e0 italiana",
        "property": "Monolocale",
        "city": "Napoli",
        "address": "Via Bologna, 80",
        "description": "Descrizione generica dell'appartamento",
        "n_rooms": 3,
        "n_beds": 1,
        "n_bathrooms": 1,
        "square_meters": 56,
        "latitude": 45.6176,
        "longitude": 13.8021,
        "status": "disponibile"
    },
    {
        "user_id": 2,
        "slug": "appartamento-41",
        "title": "Appartamento numero 41 in una citt\u00e0 italiana",
        "property": "Villa",
        "city": "Torino",
        "address": "Via Palermo, 33",
        "description": "Descrizione generica dell'appartamento",
        "n_rooms": 3,
        "n_beds": 2,
        "n_bathrooms": 2,
        "square_meters": 88,
        "latitude": 41.4006,
        "longitude": 11.5489,
        "status": "occupato"
    },
    {
        "user_id": 2,
        "slug": "appartamento-42",
        "title": "Appartamento numero 42 in una citt\u00e0 italiana",
        "property": "Villa",
        "city": "Bologna",
        "address": "Via Milano, 55",
        "description": "Descrizione generica dell'appartamento",
        "n_rooms": 2,
        "n_beds": 4,
        "n_bathrooms": 2,
        "square_meters": 95,
        "latitude": 39.3329,
        "longitude": 11.2284,
        "status": "occupato"
    },
    {
        "user_id": 4,
        "slug": "appartamento-43",
        "title": "Appartamento numero 43 in una citt\u00e0 italiana",
        "property": "Appartamento",
        "city": "Milano",
        "address": "Via Palermo, 92",
        "description": "Descrizione generica dell'appartamento",
        "n_rooms": 4,
        "n_beds": 1,
        "n_bathrooms": 3,
        "square_meters": 108,
        "latitude": 43.5669,
        "longitude": 14.5065,
        "status": "disponibile"
    },
    {
        "user_id": 2,
        "slug": "appartamento-44",
        "title": "Appartamento numero 44 in una citt\u00e0 italiana",
        "property": "Monolocale",
        "city": "Milano",
        "address": "Via Napoli, 10",
        "description": "Descrizione generica dell'appartamento",
        "n_rooms": 3,
        "n_beds": 5,
        "n_bathrooms": 3,
        "square_meters": 57,
        "latitude": 39.4687,
        "longitude": 13.9625,
        "status": "occupato"
    },
    {
        "user_id": 4,
        "slug": "appartamento-45",
        "title": "Appartamento numero 45 in una citt\u00e0 italiana",
        "property": "Villa",
        "city": "Napoli",
        "address": "Via Milano, 20",
        "description": "Descrizione generica dell'appartamento",
        "n_rooms": 3,
        "n_beds": 3,
        "n_bathrooms": 2,
        "square_meters": 116,
        "latitude": 45.0605,
        "longitude": 16.9681,
        "status": "disponibile"
    },
    {
        "user_id": 4,
        "slug": "appartamento-46",
        "title": "Appartamento numero 46 in una citt\u00e0 italiana",
        "property": "Attico",
        "city": "Firenze",
        "address": "Via Bologna, 27",
        "description": "Descrizione generica dell'appartamento",
        "n_rooms": 5,
        "n_beds": 4,
        "n_bathrooms": 1,
        "square_meters": 101,
        "latitude": 41.036,
        "longitude": 17.053,
        "status": "occupato"
    },
    {
        "user_id": 4,
        "slug": "appartamento-47",
        "title": "Appartamento numero 47 in una citt\u00e0 italiana",
        "property": "Villa",
        "city": "Venezia",
        "address": "Via Milano, 13",
        "description": "Descrizione generica dell'appartamento",
        "n_rooms": 4,
        "n_beds": 1,
        "n_bathrooms": 2,
        "square_meters": 107,
        "latitude": 37.5327,
        "longitude": 9.5208,
        "status": "occupato"
    },
    {
        "user_id": 5,
        "slug": "appartamento-48",
        "title": "Appartamento numero 48 in una citt\u00e0 italiana",
        "property": "Villa",
        "city": "Milano",
        "address": "Via Milano, 24",
        "description": "Descrizione generica dell'appartamento",
        "n_rooms": 3,
        "n_beds": 5,
        "n_bathrooms": 2,
        "square_meters": 82,
        "latitude": 38.989,
        "longitude": 10.9468,
        "status": "occupato"
    },
    {
        "user_id": 3,
        "slug": "appartamento-49",
        "title": "Appartamento numero 49 in una citt\u00e0 italiana",
        "property": "Villa",
        "city": "Firenze",
        "address": "Via Milano, 38",
        "description": "Descrizione generica dell'appartamento",
        "n_rooms": 1,
        "n_beds": 5,
        "n_bathrooms": 2,
        "square_meters": 82,
        "latitude": 37.6876,
        "longitude": 16.3986,
        "status": "disponibile"
    },
    {
        "user_id": 2,
        "slug": "appartamento-50",
        "title": "Appartamento numero 50 in una citt\u00e0 italiana",
        "property": "Appartamento",
        "city": "Torino",
        "address": "Via Bologna, 24",
        "description": "Descrizione generica dell'appartamento",
        "n_rooms": 2,
        "n_beds": 4,
        "n_bathrooms": 3,
        "square_meters": 96,
        "latitude": 39.1754,
        "longitude": 13.9179,
        "status": "disponibile"
    },
    {
        "user_id": 3,
        "slug": "appartamento-51",
        "title": "Appartamento numero 51 in una citt\u00e0 italiana",
        "property": "Loft",
        "city": "Torino",
        "address": "Via Milano, 34",
        "description": "Descrizione generica dell'appartamento",
        "n_rooms": 3,
        "n_beds": 5,
        "n_bathrooms": 1,
        "square_meters": 71,
        "latitude": 45.5524,
        "longitude": 17.0617,
        "status": "disponibile"
    },
    {
        "user_id": 3,
        "slug": "appartamento-52",
        "title": "Appartamento numero 52 in una citt\u00e0 italiana",
        "property": "Villa",
        "city": "Bologna",
        "address": "Via Bologna, 30",
        "description": "Descrizione generica dell'appartamento",
        "n_rooms": 1,
        "n_beds": 3,
        "n_bathrooms": 2,
        "square_meters": 82,
        "latitude": 38.3824,
        "longitude": 17.7331,
        "status": "occupato"
    },
    {
        "user_id": 1,
        "slug": "appartamento-53",
        "title": "Appartamento numero 53 in una citt\u00e0 italiana",
        "property": "Monolocale",
        "city": "Palermo",
        "address": "Via Milano, 49",
        "description": "Descrizione generica dell'appartamento",
        "n_rooms": 2,
        "n_beds": 2,
        "n_bathrooms": 1,
        "square_meters": 50,
        "latitude": 40.4872,
        "longitude": 14.475,
        "status": "occupato"
    },
    {
        "user_id": 2,
        "slug": "appartamento-54",
        "title": "Appartamento numero 54 in una citt\u00e0 italiana",
        "property": "Villa",
        "city": "Firenze",
        "address": "Via Palermo, 23",
        "description": "Descrizione generica dell'appartamento",
        "n_rooms": 4,
        "n_beds": 3,
        "n_bathrooms": 1,
        "square_meters": 134,
        "latitude": 37.5087,
        "longitude": 9.5134,
        "status": "occupato"
    },
    {
        "user_id": 3,
        "slug": "appartamento-55",
        "title": "Appartamento numero 55 in una citt\u00e0 italiana",
        "property": "Attico",
        "city": "Torino",
        "address": "Via Napoli, 21",
        "description": "Descrizione generica dell'appartamento",
        "n_rooms": 4,
        "n_beds": 5,
        "n_bathrooms": 2,
        "square_meters": 108,
        "latitude": 43.8671,
        "longitude": 16.0213,
        "status": "disponibile"
    },
    {
        "user_id": 1,
        "slug": "appartamento-56",
        "title": "Appartamento numero 56 in una citt\u00e0 italiana",
        "property": "Attico",
        "city": "Venezia",
        "address": "Via Bologna, 90",
        "description": "Descrizione generica dell'appartamento",
        "n_rooms": 4,
        "n_beds": 1,
        "n_bathrooms": 1,
        "square_meters": 150,
        "latitude": 39.2155,
        "longitude": 8.8821,
        "status": "occupato"
    },
    {
        "user_id": 5,
        "slug": "appartamento-57",
        "title": "Appartamento numero 57 in una citt\u00e0 italiana",
        "property": "Monolocale",
        "city": "Venezia",
        "address": "Via Roma, 97",
        "description": "Descrizione generica dell'appartamento",
        "n_rooms": 5,
        "n_beds": 1,
        "n_bathrooms": 2,
        "square_meters": 49,
        "latitude": 42.6288,
        "longitude": 11.6818,
        "status": "occupato"
    },
    {
        "user_id": 5,
        "slug": "appartamento-58",
        "title": "Appartamento numero 58 in una citt\u00e0 italiana",
        "property": "Villa",
        "city": "Roma",
        "address": "Via Palermo, 55",
        "description": "Descrizione generica dell'appartamento",
        "n_rooms": 3,
        "n_beds": 5,
        "n_bathrooms": 2,
        "square_meters": 52,
        "latitude": 42.5528,
        "longitude": 13.8838,
        "status": "occupato"
    },
    {
        "user_id": 3,
        "slug": "appartamento-59",
        "title": "Appartamento numero 59 in una citt\u00e0 italiana",
        "property": "Loft",
        "city": "Palermo",
        "address": "Via Bologna, 74",
        "description": "Descrizione generica dell'appartamento",
        "n_rooms": 3,
        "n_beds": 5,
        "n_bathrooms": 2,
        "square_meters": 113,
        "latitude": 41.3176,
        "longitude": 16.2381,
        "status": "occupato"
    },
    {
        "user_id": 3,
        "slug": "appartamento-60",
        "title": "Appartamento numero 60 in una citt\u00e0 italiana",
        "property": "Monolocale",
        "city": "Torino",
        "address": "Via Napoli, 53",
        "description": "Descrizione generica dell'appartamento",
        "n_rooms": 3,
        "n_beds": 5,
        "n_bathrooms": 2,
        "square_meters": 71,
        "latitude": 38.0223,
        "longitude": 8.3593,
        "status": "occupato"
    },
    {
        "user_id": 1,
        "slug": "appartamento-61",
        "title": "Appartamento numero 61 in una citt\u00e0 italiana",
        "property": "Loft",
        "city": "Torino",
        "address": "Via Napoli, 97",
        "description": "Descrizione generica dell'appartamento",
        "n_rooms": 2,
        "n_beds": 2,
        "n_bathrooms": 3,
        "square_meters": 108,
        "latitude": 41.8447,
        "longitude": 11.9289,
        "status": "occupato"
    },
    {
        "user_id": 2,
        "slug": "appartamento-62",
        "title": "Appartamento numero 62 in una citt\u00e0 italiana",
        "property": "Monolocale",
        "city": "Napoli",
        "address": "Via Roma, 23",
        "description": "Descrizione generica dell'appartamento",
        "n_rooms": 4,
        "n_beds": 2,
        "n_bathrooms": 3,
        "square_meters": 88,
        "latitude": 40.0303,
        "longitude": 9.1256,
        "status": "disponibile"
    },
    {
        "user_id": 3,
        "slug": "appartamento-63",
        "title": "Appartamento numero 63 in una citt\u00e0 italiana",
        "property": "Monolocale",
        "city": "Roma",
        "address": "Via Napoli, 100",
        "description": "Descrizione generica dell'appartamento",
        "n_rooms": 2,
        "n_beds": 1,
        "n_bathrooms": 1,
        "square_meters": 50,
        "latitude": 40.1553,
        "longitude": 12.4467,
        "status": "occupato"
    },
    {
        "user_id": 4,
        "slug": "appartamento-64",
        "title": "Appartamento numero 64 in una citt\u00e0 italiana",
        "property": "Attico",
        "city": "Roma",
        "address": "Via Palermo, 81",
        "description": "Descrizione generica dell'appartamento",
        "n_rooms": 2,
        "n_beds": 1,
        "n_bathrooms": 2,
        "square_meters": 40,
        "latitude": 39.8007,
        "longitude": 9.5257,
        "status": "disponibile"
    },
    {
        "user_id": 4,
        "slug": "appartamento-65",
        "title": "Appartamento numero 65 in una citt\u00e0 italiana",
        "property": "Monolocale",
        "city": "Firenze",
        "address": "Via Bologna, 68",
        "description": "Descrizione generica dell'appartamento",
        "n_rooms": 2,
        "n_beds": 1,
        "n_bathrooms": 1,
        "square_meters": 61,
        "latitude": 37.9079,
        "longitude": 7.8328,
        "status": "occupato"
    },
    {
        "user_id": 1,
        "slug": "appartamento-66",
        "title": "Appartamento numero 66 in una citt\u00e0 italiana",
        "property": "Loft",
        "city": "Firenze",
        "address": "Via Roma, 34",
        "description": "Descrizione generica dell'appartamento",
        "n_rooms": 2,
        "n_beds": 5,
        "n_bathrooms": 2,
        "square_meters": 101,
        "latitude": 41.822,
        "longitude": 11.914,
        "status": "disponibile"
    },
    {
        "user_id": 4,
        "slug": "appartamento-67",
        "title": "Appartamento numero 67 in una citt\u00e0 italiana",
        "property": "Monolocale",
        "city": "Venezia",
        "address": "Via Napoli, 41",
        "description": "Descrizione generica dell'appartamento",
        "n_rooms": 1,
        "n_beds": 3,
        "n_bathrooms": 2,
        "square_meters": 54,
        "latitude": 42.3657,
        "longitude": 16.3186,
        "status": "disponibile"
    },
    {
        "user_id": 5,
        "slug": "appartamento-68",
        "title": "Appartamento numero 68 in una citt\u00e0 italiana",
        "property": "Villa",
        "city": "Firenze",
        "address": "Via Milano, 42",
        "description": "Descrizione generica dell'appartamento",
        "n_rooms": 2,
        "n_beds": 5,
        "n_bathrooms": 3,
        "square_meters": 148,
        "latitude": 42.99,
        "longitude": 9.9726,
        "status": "occupato"
    },
    {
        "user_id": 2,
        "slug": "appartamento-69",
        "title": "Appartamento numero 69 in una citt\u00e0 italiana",
        "property": "Appartamento",
        "city": "Torino",
        "address": "Via Bologna, 82",
        "description": "Descrizione generica dell'appartamento",
        "n_rooms": 3,
        "n_beds": 2,
        "n_bathrooms": 2,
        "square_meters": 110,
        "latitude": 40.9445,
        "longitude": 13.6938,
        "status": "occupato"
    },
    {
        "user_id": 1,
        "slug": "appartamento-70",
        "title": "Appartamento numero 70 in una citt\u00e0 italiana",
        "property": "Appartamento",
        "city": "Milano",
        "address": "Via Bologna, 98",
        "description": "Descrizione generica dell'appartamento",
        "n_rooms": 5,
        "n_beds": 5,
        "n_bathrooms": 3,
        "square_meters": 133,
        "latitude": 42.2277,
        "longitude": 10.5334,
        "status": "occupato"
    },
    {
        "user_id": 2,
        "slug": "appartamento-71",
        "title": "Appartamento numero 71 in una citt\u00e0 italiana",
        "property": "Attico",
        "city": "Milano",
        "address": "Via Bologna, 47",
        "description": "Descrizione generica dell'appartamento",
        "n_rooms": 4,
        "n_beds": 3,
        "n_bathrooms": 3,
        "square_meters": 126,
        "latitude": 40.6334,
        "longitude": 10.3234,
        "status": "disponibile"
    },
    {
        "user_id": 2,
        "slug": "appartamento-72",
        "title": "Appartamento numero 72 in una citt\u00e0 italiana",
        "property": "Appartamento",
        "city": "Torino",
        "address": "Via Palermo, 39",
        "description": "Descrizione generica dell'appartamento",
        "n_rooms": 3,
        "n_beds": 4,
        "n_bathrooms": 3,
        "square_meters": 106,
        "latitude": 43.8551,
        "longitude": 15.7615,
        "status": "disponibile"
    },
    {
        "user_id": 3,
        "slug": "appartamento-73",
        "title": "Appartamento numero 73 in una citt\u00e0 italiana",
        "property": "Attico",
        "city": "Venezia",
        "address": "Via Roma, 47",
        "description": "Descrizione generica dell'appartamento",
        "n_rooms": 5,
        "n_beds": 4,
        "n_bathrooms": 2,
        "square_meters": 50,
        "latitude": 42.5355,
        "longitude": 12.6575,
        "status": "disponibile"
    },
    {
        "user_id": 1,
        "slug": "appartamento-74",
        "title": "Appartamento numero 74 in una citt\u00e0 italiana",
        "property": "Villa",
        "city": "Napoli",
        "address": "Via Milano, 66",
        "description": "Descrizione generica dell'appartamento",
        "n_rooms": 5,
        "n_beds": 3,
        "n_bathrooms": 1,
        "square_meters": 97,
        "latitude": 40.9766,
        "longitude": 15.8962,
        "status": "disponibile"
    },
    {
        "user_id": 1,
        "slug": "appartamento-75",
        "title": "Appartamento numero 75 in una citt\u00e0 italiana",
        "property": "Loft",
        "city": "Firenze",
        "address": "Via Roma, 37",
        "description": "Descrizione generica dell'appartamento",
        "n_rooms": 5,
        "n_beds": 5,
        "n_bathrooms": 3,
        "square_meters": 148,
        "latitude": 43.4829,
        "longitude": 12.5803,
        "status": "occupato"
    },
    {
        "user_id": 1,
        "slug": "appartamento-76",
        "title": "Appartamento numero 76 in una citt\u00e0 italiana",
        "property": "Loft",
        "city": "Firenze",
        "address": "Via Palermo, 77",
        "description": "Descrizione generica dell'appartamento",
        "n_rooms": 3,
        "n_beds": 2,
        "n_bathrooms": 1,
        "square_meters": 99,
        "latitude": 44.1905,
        "longitude": 9.9584,
        "status": "disponibile"
    },
    {
        "user_id": 4,
        "slug": "appartamento-77",
        "title": "Appartamento numero 77 in una citt\u00e0 italiana",
        "property": "Loft",
        "city": "Torino",
        "address": "Via Bologna, 3",
        "description": "Descrizione generica dell'appartamento",
        "n_rooms": 4,
        "n_beds": 3,
        "n_bathrooms": 3,
        "square_meters": 129,
        "latitude": 38.092,
        "longitude": 12.8541,
        "status": "disponibile"
    },
    {
        "user_id": 5,
        "slug": "appartamento-78",
        "title": "Appartamento numero 78 in una citt\u00e0 italiana",
        "property": "Appartamento",
        "city": "Roma",
        "address": "Via Milano, 28",
        "description": "Descrizione generica dell'appartamento",
        "n_rooms": 5,
        "n_beds": 3,
        "n_bathrooms": 3,
        "square_meters": 92,
        "latitude": 44.283,
        "longitude": 16.8106,
        "status": "occupato"
    },
    {
        "user_id": 5,
        "slug": "appartamento-79",
        "title": "Appartamento numero 79 in una citt\u00e0 italiana",
        "property": "Attico",
        "city": "Venezia",
        "address": "Via Milano, 69",
        "description": "Descrizione generica dell'appartamento",
        "n_rooms": 3,
        "n_beds": 4,
        "n_bathrooms": 1,
        "square_meters": 63,
        "latitude": 40.6315,
        "longitude": 9.8176,
        "status": "disponibile"
    },
    {
        "user_id": 4,
        "slug": "appartamento-80",
        "title": "Appartamento numero 80 in una citt\u00e0 italiana",
        "property": "Appartamento",
        "city": "Bologna",
        "address": "Via Bologna, 71",
        "description": "Descrizione generica dell'appartamento",
        "n_rooms": 3,
        "n_beds": 1,
        "n_bathrooms": 2,
        "square_meters": 124,
        "latitude": 43.285,
        "longitude": 12.8224,
        "status": "occupato"
    },
    {
        "user_id": 3,
        "slug": "appartamento-81",
        "title": "Appartamento numero 81 in una citt\u00e0 italiana",
        "property": "Villa",
        "city": "Roma",
        "address": "Via Palermo, 42",
        "description": "Descrizione generica dell'appartamento",
        "n_rooms": 5,
        "n_beds": 1,
        "n_bathrooms": 2,
        "square_meters": 86,
        "latitude": 44.3764,
        "longitude": 7.3086,
        "status": "disponibile"
    },
    {
        "user_id": 1,
        "slug": "appartamento-82",
        "title": "Appartamento numero 82 in una citt\u00e0 italiana",
        "property": "Loft",
        "city": "Palermo",
        "address": "Via Bologna, 54",
        "description": "Descrizione generica dell'appartamento",
        "n_rooms": 3,
        "n_beds": 3,
        "n_bathrooms": 1,
        "square_meters": 55,
        "latitude": 45.4339,
        "longitude": 16.802,
        "status": "occupato"
    },
    {
        "user_id": 5,
        "slug": "appartamento-83",
        "title": "Appartamento numero 83 in una citt\u00e0 italiana",
        "property": "Loft",
        "city": "Bologna",
        "address": "Via Bologna, 32",
        "description": "Descrizione generica dell'appartamento",
        "n_rooms": 1,
        "n_beds": 1,
        "n_bathrooms": 1,
        "square_meters": 118,
        "latitude": 45.7085,
        "longitude": 16.1917,
        "status": "occupato"
    },
    {
        "user_id": 2,
        "slug": "appartamento-84",
        "title": "Appartamento numero 84 in una citt\u00e0 italiana",
        "property": "Appartamento",
        "city": "Venezia",
        "address": "Via Roma, 31",
        "description": "Descrizione generica dell'appartamento",
        "n_rooms": 1,
        "n_beds": 3,
        "n_bathrooms": 2,
        "square_meters": 74,
        "latitude": 45.7375,
        "longitude": 16.8102,
        "status": "occupato"
    },
    {
        "user_id": 1,
        "slug": "appartamento-85",
        "title": "Appartamento numero 85 in una citt\u00e0 italiana",
        "property": "Monolocale",
        "city": "Torino",
        "address": "Via Napoli, 89",
        "description": "Descrizione generica dell'appartamento",
        "n_rooms": 1,
        "n_beds": 2,
        "n_bathrooms": 3,
        "square_meters": 35,
        "latitude": 43.3139,
        "longitude": 9.5045,
        "status": "disponibile"
    },
    {
        "user_id": 2,
        "slug": "appartamento-86",
        "title": "Appartamento numero 86 in una citt\u00e0 italiana",
        "property": "Loft",
        "city": "Bologna",
        "address": "Via Roma, 37",
        "description": "Descrizione generica dell'appartamento",
        "n_rooms": 3,
        "n_beds": 2,
        "n_bathrooms": 3,
        "square_meters": 38,
        "latitude": 37.157,
        "longitude": 15.7716,
        "status": "disponibile"
    },
    {
        "user_id": 4,
        "slug": "appartamento-87",
        "title": "Appartamento numero 87 in una citt\u00e0 italiana",
        "property": "Attico",
        "city": "Firenze",
        "address": "Via Palermo, 84",
        "description": "Descrizione generica dell'appartamento",
        "n_rooms": 1,
        "n_beds": 1,
        "n_bathrooms": 2,
        "square_meters": 39,
        "latitude": 41.621,
        "longitude": 12.7769,
        "status": "occupato"
    },
    {
        "user_id": 4,
        "slug": "appartamento-88",
        "title": "Appartamento numero 88 in una citt\u00e0 italiana",
        "property": "Monolocale",
        "city": "Palermo",
        "address": "Via Roma, 69",
        "description": "Descrizione generica dell'appartamento",
        "n_rooms": 1,
        "n_beds": 5,
        "n_bathrooms": 1,
        "square_meters": 68,
        "latitude": 43.5906,
        "longitude": 11.0409,
        "status": "disponibile"
    },
    {
        "user_id": 3,
        "slug": "appartamento-89",
        "title": "Appartamento numero 89 in una citt\u00e0 italiana",
        "property": "Monolocale",
        "city": "Roma",
        "address": "Via Napoli, 58",
        "description": "Descrizione generica dell'appartamento",
        "n_rooms": 3,
        "n_beds": 3,
        "n_bathrooms": 3,
        "square_meters": 67,
        "latitude": 38.7929,
        "longitude": 13.0245,
        "status": "occupato"
    },
    {
        "user_id": 1,
        "slug": "appartamento-90",
        "title": "Appartamento numero 90 in una citt\u00e0 italiana",
        "property": "Attico",
        "city": "Napoli",
        "address": "Via Palermo, 36",
        "description": "Descrizione generica dell'appartamento",
        "n_rooms": 2,
        "n_beds": 2,
        "n_bathrooms": 1,
        "square_meters": 33,
        "latitude": 42.4108,
        "longitude": 13.0594,
        "status": "disponibile"
    },
    {
        "user_id": 3,
        "slug": "appartamento-91",
        "title": "Appartamento numero 91 in una citt\u00e0 italiana",
        "property": "Appartamento",
        "city": "Firenze",
        "address": "Via Bologna, 42",
        "description": "Descrizione generica dell'appartamento",
        "n_rooms": 2,
        "n_beds": 2,
        "n_bathrooms": 1,
        "square_meters": 61,
        "latitude": 40.0644,
        "longitude": 9.175,
        "status": "occupato"
    },
    {
        "user_id": 5,
        "slug": "appartamento-92",
        "title": "Appartamento numero 92 in una citt\u00e0 italiana",
        "property": "Appartamento",
        "city": "Torino",
        "address": "Via Milano, 83",
        "description": "Descrizione generica dell'appartamento",
        "n_rooms": 5,
        "n_beds": 1,
        "n_bathrooms": 3,
        "square_meters": 41,
        "latitude": 38.0148,
        "longitude": 10.5354,
        "status": "occupato"
    },
    {
        "user_id": 5,
        "slug": "appartamento-93",
        "title": "Appartamento numero 93 in una citt\u00e0 italiana",
        "property": "Monolocale",
        "city": "Napoli",
        "address": "Via Bologna, 93",
        "description": "Descrizione generica dell'appartamento",
        "n_rooms": 5,
        "n_beds": 5,
        "n_bathrooms": 1,
        "square_meters": 91,
        "latitude": 42.6583,
        "longitude": 15.8642,
        "status": "occupato"
    },
    {
        "user_id": 1,
        "slug": "appartamento-94",
        "title": "Appartamento numero 94 in una citt\u00e0 italiana",
        "property": "Monolocale",
        "city": "Napoli",
        "address": "Via Palermo, 14",
        "description": "Descrizione generica dell'appartamento",
        "n_rooms": 2,
        "n_beds": 2,
        "n_bathrooms": 3,
        "square_meters": 99,
        "latitude": 41.2408,
        "longitude": 8.6055,
        "status": "occupato"
    },
    {
        "user_id": 4,
        "slug": "appartamento-95",
        "title": "Appartamento numero 95 in una citt\u00e0 italiana",
        "property": "Villa",
        "city": "Napoli",
        "address": "Via Roma, 27",
        "description": "Descrizione generica dell'appartamento",
        "n_rooms": 4,
        "n_beds": 5,
        "n_bathrooms": 1,
        "square_meters": 131,
        "latitude": 38.5166,
        "longitude": 15.0148,
        "status": "occupato"
    },
    {
        "user_id": 1,
        "slug": "appartamento-96",
        "title": "Appartamento numero 96 in una citt\u00e0 italiana",
        "property": "Monolocale",
        "city": "Milano",
        "address": "Via Napoli, 22",
        "description": "Descrizione generica dell'appartamento",
        "n_rooms": 5,
        "n_beds": 3,
        "n_bathrooms": 2,
        "square_meters": 141,
        "latitude": 44.697,
        "longitude": 17.0921,
        "status": "occupato"
    },
    {
        "user_id": 3,
        "slug": "appartamento-97",
        "title": "Appartamento numero 97 in una citt\u00e0 italiana",
        "property": "Loft",
        "city": "Bologna",
        "address": "Via Milano, 17",
        "description": "Descrizione generica dell'appartamento",
        "n_rooms": 5,
        "n_beds": 3,
        "n_bathrooms": 2,
        "square_meters": 140,
        "latitude": 38.2277,
        "longitude": 9.1917,
        "status": "disponibile"
    },
    {
        "user_id": 3,
        "slug": "appartamento-98",
        "title": "Appartamento numero 98 in una citt\u00e0 italiana",
        "property": "Loft",
        "city": "Palermo",
        "address": "Via Milano, 37",
        "description": "Descrizione generica dell'appartamento",
        "n_rooms": 3,
        "n_beds": 4,
        "n_bathrooms": 1,
        "square_meters": 149,
        "latitude": 39.2934,
        "longitude": 7.9442,
        "status": "occupato"
    },
    {
        "user_id": 4,
        "slug": "appartamento-99",
        "title": "Appartamento numero 99 in una citt\u00e0 italiana",
        "property": "Villa",
        "city": "Milano",
        "address": "Via Roma, 21",
        "description": "Descrizione generica dell'appartamento",
        "n_rooms": 5,
        "n_beds": 1,
        "n_bathrooms": 3,
        "square_meters": 42,
        "latitude": 38.3152,
        "longitude": 14.1457,
        "status": "occupato"
    },
    {
        "user_id": 4,
        "slug": "appartamento-100",
        "title": "Appartamento numero 100 in una citt\u00e0 italiana",
        "property": "Loft",
        "city": "Torino",
        "address": "Via Roma, 31",
        "description": "Descrizione generica dell'appartamento",
        "n_rooms": 1,
        "n_beds": 2,
        "n_bathrooms": 3,
        "square_meters": 103,
        "latitude": 41.1374,
        "longitude": 12.7942,
        "status": "disponibile"
    }
]